City_ID,City,Lat,Lng,Max Temp,Humidity,Cloudiness,Wind Speed,Country,Date
0,edinburgh of the seven seas,-37.0676,-12.3116,15.67,76,41,9.45,SH,1707070503
1,chul'man,56.8479,124.9104,-39.33,100,77,0.47,RU,1707070504
2,adamstown,-25.066,-130.1015,24.85,79,99,3.46,PN,1707070504
3,mead valley,33.8334,-117.2962,14.05,72,20,3.6,US,1707070505
4,tiksi,71.6872,128.8694,-33.61,100,95,0.39,RU,1707070505
5,whitehorse,60.7161,-135.0538,-26.57,69,75,1.54,CA,1707070505
6,mount isa,-20.7333,139.5,25.87,89,96,2.57,AU,1707070505
7,northport,33.229,-87.5772,7.9,78,100,3.6,US,1707070506
8,vernon,50.2581,-119.2691,2.09,90,100,0.45,CA,1707070214
9,sol'-iletsk,51.1631,54.9918,0.06,98,100,9.58,RU,1707070506
10,clinton,42.587,-82.9199,7.7,67,20,1.54,US,1707070507
11,sao joao da barra,-21.6403,-41.0511,32.05,82,99,4.7,BR,1707070507
12,constantia,44.1833,28.65,8.38,81,81,4.66,RO,1707070482
13,al bawiti,28.3492,28.8659,12.0,47,1,3.06,EG,1707070508
14,jiazi,22.8779,116.067,17.65,91,76,2.68,CN,1707070508
15,ushuaia,-54.8,-68.3,16.81,59,75,7.2,AR,1707070281
16,keflavik,64.0049,-22.5624,-3.76,74,75,2.57,IS,1707070508
17,albany,42.6001,-73.9662,4.21,57,11,1.34,US,1707070509
18,grytviken,-54.2811,-36.5092,4.51,72,81,5.74,GS,1707070509
19,bredasdorp,-34.5322,20.0403,23.78,77,6,2.97,ZA,1707070510
20,port-aux-francais,-49.35,70.2167,5.0,73,55,11.18,TF,1707070511
21,kavaratti,10.5669,72.642,27.85,69,36,3.15,IN,1707070512
22,blackmans bay,-43.0167,147.3167,12.07,95,75,1.81,AU,1707070512
23,quellon,-43.1167,-73.6167,19.22,46,34,1.04,CL,1707070512
24,hotan,37.0997,79.9269,-2.36,73,100,2.09,CN,1707070512
25,georgetown,5.4112,100.3354,28.96,79,40,1.03,MY,1707070400
26,port elizabeth,-33.918,25.5701,23.94,95,100,5.14,ZA,1707070239
27,waitangi,-43.9535,-176.5597,15.46,91,68,5.22,NZ,1707070513
28,papatowai,-46.5619,169.4708,13.11,98,100,2.17,NZ,1707070514
29,haiku-pauwela,20.9219,-156.3051,20.58,84,75,6.26,US,1707070514
30,kumylzhenskaya,49.8809,42.5898,2.77,90,100,5.66,RU,1707070515
31,nemuro,43.3236,145.575,-6.26,71,67,7.29,JP,1707070515
32,susuman,62.7833,148.1667,-28.9,99,100,1.34,RU,1707070515
33,balqash,46.8481,74.995,-12.28,96,99,2.27,KZ,1707070515
34,si sa ket,14.8333,104.3333,27.72,58,67,1.9,TH,1707070516
35,tromso,69.6496,18.957,-5.99,79,0,1.03,NO,1707070516
36,college,64.8569,-147.8028,-23.94,72,75,1.54,US,1707070517
37,talnakh,69.4865,88.3972,-18.22,97,99,2.71,RU,1707070517
38,iqaluit,63.7506,-68.5145,-19.15,78,100,5.14,CA,1707070335
39,tual,-5.6667,132.75,28.7,78,100,5.03,ID,1707070518
40,eenhana,-17.4667,16.3333,23.55,72,100,1.19,NA,1707070519
41,bethel,41.3712,-73.414,7.2,49,0,4.12,US,1707070253
42,graaff-reinet,-32.2522,24.5308,24.62,49,75,3.4,ZA,1707070519
43,al jawf,29.5,38.75,11.68,37,1,3.87,SA,1707070520
44,katsuren-haebaru,26.3369,127.8719,23.21,84,100,5.66,JP,1707070520
45,yellowknife,62.456,-114.3525,-20.4,81,20,2.06,CA,1707070521
46,tura,25.5198,90.2201,13.98,43,21,1.56,IN,1707070521
47,nova sintra,14.8667,-24.7167,21.62,67,0,3.6,CV,1707070522
48,gadzhiyevo,69.2551,33.3362,-11.8,85,62,7.15,RU,1707070522
49,hermanus,-34.4187,19.2345,21.56,87,37,1.54,ZA,1707070523
50,lucapa,-8.4192,20.7447,20.54,92,89,1.39,AO,1707070523
51,port alfred,-33.5906,26.891,23.43,92,81,1.34,ZA,1707070524
52,stanley,54.868,-1.6985,12.38,83,75,11.32,GB,1707070525
53,invercargill,-46.4,168.35,13.34,98,100,1.74,NZ,1707070301
54,taft,31.7471,54.2088,3.97,39,0,3.09,IR,1707070525
55,muisne,0.6,-80.0333,28.11,76,90,3.27,EC,1707070525
56,tutoia,-2.7619,-42.2744,29.9,70,71,6.92,BR,1707070277
57,olonkinbyen,70.9221,-8.7187,-6.44,73,100,8.63,SJ,1707070526
58,midvagur,62.0511,-7.1939,2.46,51,100,5.14,FO,1707070526
59,lebu,-37.6167,-73.65,18.78,65,0,4.88,CL,1707070526
60,korla,41.7597,86.1469,-5.32,75,88,2.95,CN,1707070527
61,hawaiian paradise park,19.5933,-154.9731,21.13,83,75,1.79,US,1707070527
62,yuzhno-kurilsk,44.0306,145.8556,-4.24,71,100,8.1,RU,1707070527
63,thompson,55.7435,-97.8558,-2.91,93,100,5.66,CA,1707070528
64,chernyshevskiy,63.0128,112.4714,-32.45,100,87,0.89,RU,1707070528
65,kailua-kona,19.6406,-155.9956,21.98,81,40,2.57,US,1707070528
66,holualoa,19.6228,-155.9522,19.91,81,40,2.57,US,1707070528
67,qaqortoq,60.7167,-46.0333,-17.82,70,0,1.92,GL,1707070529
68,tidjikja,18.5564,-11.4271,26.47,6,42,5.03,MR,1707070529
69,novoishimskiy,53.1981,66.7694,-5.85,92,100,7.36,KZ,1707070529
70,koryazhma,61.3143,47.1691,-13.38,95,94,3.68,RU,1707070529
71,enewetak,11.3474,162.3373,26.35,76,84,8.4,MH,1707070529
72,kayangel,8.0823,134.7173,27.63,80,33,8.47,PW,1707070530
73,puerto natales,-51.7236,-72.4875,25.25,38,75,15.95,CL,1707070530
74,kirensk,57.7853,108.1119,-16.29,98,100,1.25,RU,1707070530
75,chonchi,-42.6128,-73.8092,25.56,28,64,0.76,CL,1707070531
76,afaahiti,-17.75,-149.2833,26.93,86,100,5.88,PF,1707070531
77,egilsstadir,65.2653,-14.3948,-7.05,79,100,1.54,IS,1707070531
78,inhambane,-23.865,35.3833,25.55,83,34,3.06,MZ,1707070531
79,wauchope,-31.45,152.7333,22.76,93,100,2.03,AU,1707070531
80,conceicao do rio verde,-21.8808,-45.0853,25.41,70,100,1.51,BR,1707070532
81,west bay,19.3667,-81.4167,30.04,74,40,6.17,KY,1707070532
82,nola,40.922,14.5329,13.69,81,25,0.79,IT,1707070532
83,udachny,66.4167,112.4,-31.29,97,63,2.22,RU,1707070532
84,qianzhou,28.3167,109.7167,-1.41,94,100,1.06,CN,1707070532
85,kataba,13.9833,44.3833,16.63,60,39,1.1,YE,1707070533
86,cabo san lucas,22.8909,-109.9124,23.62,60,0,0.45,MX,1707069803
87,whitby,54.4877,-0.615,12.4,80,100,10.95,GB,1707070533
88,margaret river,-33.95,115.0667,14.17,71,62,3.54,AU,1707070534
89,jabat,7.75,168.9751,27.28,69,100,8.94,MH,1707070534
90,paratinga,-12.6906,-43.1842,32.85,36,50,2.55,BR,1707070534
91,badger,64.8,-147.5333,-23.99,64,40,1.54,US,1707070534
92,vilyuysk,63.7553,121.6247,-37.22,100,58,0.89,RU,1707070535
93,port mathurin,-19.6833,63.4167,26.19,74,12,7.28,MU,1707070535
94,kone,-21.0595,164.8658,26.04,92,100,2.6,NC,1707070535
95,petropavlovsk-kamchatsky,53.0452,158.6483,-12.67,81,0,3.13,RU,1707070536
96,tazovsky,67.4667,78.7,-13.73,95,100,3.87,RU,1707070536
97,shakiso,5.75,38.9167,18.52,51,48,1.54,ET,1707070536
98,scarborough,54.2797,-0.4044,12.76,84,100,4.02,GB,1707069650
99,aykhal,66.0,111.5,-29.95,94,54,3.07,RU,1707070536
100,luderitz,-26.6481,15.1594,20.45,80,3,4.78,NA,1707070537
101,harstad,68.799,16.5293,-0.34,95,100,5.36,NO,1707070537
102,huarmey,-10.0681,-78.1522,25.99,74,100,3.54,PE,1707070537
103,sarangani,5.4033,125.4636,27.22,78,5,9.45,PH,1707070537
104,tongchuanshi,35.0806,109.0897,-4.65,89,96,0.37,CN,1707070537
105,la sarre,48.8002,-79.1996,-0.39,97,100,1.06,CA,1707070307
106,yaren,-0.5472,166.916,29.11,73,98,6.51,NR,1707070538
107,amahai,-3.3333,128.9167,25.98,86,100,2.7,ID,1707070538
108,trinidad,-14.8333,-64.9,32.99,62,40,2.06,BO,1707070538
109,new norfolk,-42.7826,147.0587,12.73,98,70,1.23,AU,1707070538
110,santa isabel,-23.3156,-46.2214,24.84,77,100,4.17,BR,1707070539
111,rongelap,11.1635,166.8941,26.22,74,100,7.75,MH,1707070539
112,uppsala,60.0,17.75,-0.31,64,6,4.12,SE,1707070539
113,mount gambier,-37.8333,140.7667,15.91,73,99,4.26,AU,1707070539
114,cadale,2.7603,46.3222,26.22,81,49,9.92,SO,1707070539
115,isangel,-19.55,169.2667,27.27,87,100,6.55,VU,1707070540
116,mu'minobod,38.1085,70.0285,-2.65,79,68,3.54,TJ,1707070540
117,punta arenas,-53.15,-70.9167,20.06,56,75,5.14,CL,1707070359
118,belmonte,-15.8631,-38.8828,28.81,65,37,3.65,BR,1707070540
119,isagarh,24.8333,77.8833,17.45,71,75,2.7,IN,1707070540
120,mangai,-4.05,19.5333,22.81,93,96,0.54,CD,1707070540
121,imperial,33.0334,-115.4175,18.65,55,5,4.77,US,1707070541
122,limavady,55.0504,-6.9507,11.88,82,100,14.4,GB,1707070541
123,uturoa,-16.7333,-151.4333,27.11,84,100,5.93,PF,1707070541
124,hatillo,18.4863,-66.8254,29.65,79,29,2.24,PR,1707070541
125,aasiaat,68.7098,-52.8699,-31.45,89,34,1.88,GL,1707070542
126,sola,-13.8833,167.55,27.99,82,92,8.75,VU,1707070542
127,hamilton,39.1834,-84.5333,13.21,47,0,5.14,US,1707070248
128,plessisville,46.2186,-71.762,-4.8,87,95,1.82,CA,1707070542
129,perevoz,55.5961,44.5446,-1.99,86,100,8.44,RU,1707070542
130,lata,40.1629,-8.3327,16.07,75,84,0.75,PT,1707070543
131,bubaque,11.2833,-15.8333,26.6,73,6,6.58,GW,1707070543
132,jamestown,42.097,-79.2353,9.18,42,0,2.06,US,1707070303
133,notse,6.95,1.1667,33.27,18,34,1.42,TG,1707070543
134,aldinga beach,-35.2793,138.4604,20.24,79,84,7.38,AU,1707070543
135,qarqaraly,49.4058,75.4742,-10.85,91,100,3.35,KZ,1707070544
136,yinchuan,38.4681,106.2731,-2.84,74,3,0.24,CN,1707070544
137,puerto ayora,-0.7393,-90.3518,28.08,87,70,3.13,EC,1707070544
138,tralee,52.2704,-9.7026,11.14,82,75,6.17,IE,1707070545
139,west island,-12.1568,96.8225,27.99,78,100,3.09,CC,1707070545
140,williamson,30.6502,-97.6003,19.31,53,0,11.32,US,1707070545
141,vila franca do campo,37.7167,-25.4333,18.27,99,28,3.72,PT,1707070545
142,vilyuchinsk,52.9306,158.4028,-11.85,78,78,4.2,RU,1707070546
143,happy valley-goose bay,53.3168,-60.3315,-17.53,85,95,0.95,CA,1707070357
144,bratsk,56.1325,101.6142,-15.73,99,79,2.41,RU,1707070546
145,artigas,-30.4,-56.4667,36.76,32,15,3.25,UY,1707070546
146,naze,28.3667,129.4833,20.06,90,100,8.75,JP,1707070546
147,pasuquin,18.3328,120.6177,23.97,94,20,1.03,PH,1707070546
148,san felice circeo,41.2372,13.0942,13.36,96,2,1.26,IT,1707070547
149,bilibino,68.0546,166.4372,-31.27,81,17,2.38,RU,1707070547
150,san mariano,7.5,126.0,20.85,96,9,1.13,PH,1707070547
151,dhidhdhoo,6.8833,73.1,27.64,76,43,3.14,MV,1707070548
152,newman,37.3138,-121.0208,12.38,91,100,5.81,US,1707070548
153,arish,31.1316,33.7984,15.23,60,7,2.18,EG,1707070548
154,arraial do cabo,-22.9661,-42.0278,28.92,74,75,7.72,BR,1707070548
155,bridgewater,44.3835,-64.5155,-3.18,82,100,13.38,CA,1707070548
156,fort st. john,56.2499,-120.8529,-4.46,38,0,1.46,CA,1707070319
157,pskov,57.8136,28.3496,-0.96,80,0,3.13,RU,1707070508
158,palmer,42.1584,-72.3287,5.74,42,0,4.63,US,1707070549
159,shimoda,34.6667,138.95,5.06,76,93,4.56,JP,1707070549
160,aripuana,-9.1667,-60.6333,23.27,98,100,0.68,BR,1707070549
161,tolanaro,-25.0319,46.9987,24.53,84,100,7.18,MG,1707070550
162,broome,42.2506,-75.833,5.56,53,0,1.54,US,1707070550
163,mkokotoni,-5.8767,39.2547,27.79,78,99,5.91,TZ,1707070550
164,kawardha,22.0167,81.25,19.77,46,0,2.04,IN,1707070551
165,minas de marcona,-15.2119,-75.1103,24.0,65,60,4.51,PE,1707070551
166,mejit,10.2753,170.8646,26.44,75,79,8.29,MH,1707070551
167,ancud,-41.8697,-73.8203,18.28,52,61,4.89,CL,1707070551
168,abbeville,50.1,1.8333,10.83,85,100,8.34,FR,1707070552
169,ottumwa,41.02,-92.4113,5.53,86,0,4.63,US,1707070324
170,manakara,-22.1333,48.0167,24.63,78,100,3.07,MG,1707070552
171,oum hadjer,13.2954,19.6966,26.84,15,79,4.87,TD,1707070552
172,n'zeto,-7.2312,12.8666,26.76,78,84,2.53,AO,1707070553
173,yanggu,36.1106,115.7753,-5.64,95,96,2.7,CN,1707070553
174,argo,37.6333,22.7333,10.44,63,15,1.6,GR,1707070553
175,borogontsy,62.6683,131.1683,-40.91,100,60,1.2,RU,1707070553
176,ola,59.5833,151.2833,-23.38,85,24,4.7,RU,1707070554
177,wad az zaki,14.4619,32.2065,23.22,13,7,5.51,SD,1707070554
178,iskateley,67.6803,53.1512,-19.43,91,82,3.13,RU,1707070554
179,alzamay,55.5562,98.6644,-19.51,99,76,1.7,RU,1707070554
180,sitka,57.0531,-135.33,2.94,100,100,3.6,US,1707070555
181,mananara,-16.1667,49.7667,24.89,92,100,1.33,MG,1707070555
182,imbituba,-28.24,-48.6703,29.22,62,4,2.32,BR,1707070555
183,kharp,66.8014,65.8081,-15.26,96,100,0.45,RU,1707070555
184,avarua,-21.2078,-159.775,27.03,89,74,0.51,CK,1707070555
185,walvis bay,-22.9575,14.5053,21.53,78,67,0.51,NA,1707070555
186,akdepe,42.0551,59.3788,3.05,69,51,4.25,TM,1707070555
187,satoraljaujhely,48.4,21.6667,7.8,78,100,4.62,HU,1707070556
188,saipan,15.1355,145.701,26.39,69,75,9.26,MP,1707070556
189,el granada,37.5027,-122.4694,14.02,92,100,12.86,US,1707070556
190,utrik,11.2278,169.8474,26.06,71,67,7.46,MH,1707070556
191,agadez,19.75,10.25,15.93,19,0,4.1,NE,1707070556
192,mammoth lakes,37.6485,-118.9721,-4.25,90,100,0.0,US,1707070303
193,qulsary,46.9531,54.0198,2.03,85,100,7.61,KZ,1707070557
194,klyuchi,52.2667,79.1667,-3.74,87,100,5.85,RU,1707070557
195,recreo,-29.2818,-65.061,39.75,23,21,9.77,AR,1707070557
196,shizuishan,39.2333,106.7694,-3.37,72,9,1.65,CN,1707070557
197,dunedin,-45.8742,170.5036,14.33,79,75,0.89,NZ,1707070557
198,ottawa,45.4112,-75.6981,-0.19,73,75,2.06,CA,1707070388
199,akrehamn,59.2667,5.1833,5.79,65,75,11.83,NO,1707070558
200,milas,37.3164,27.7839,8.64,81,0,1.03,TR,1707070558
201,fort stockton,30.894,-102.8793,16.03,18,0,12.35,US,1707070558
202,ivdel',60.6911,60.4206,-16.01,96,100,2.56,RU,1707070558
203,san pedro pochutla,15.7333,-96.4667,32.84,30,8,4.1,MX,1707070559
204,hithadhoo,-0.6,73.0833,28.29,78,89,5.65,MV,1707070559
205,lihue,21.9789,-159.3672,21.77,66,100,10.29,US,1707070559
206,heihe,50.2441,127.4902,-23.67,97,10,1.26,CN,1707070559
207,ust'-ilimsk,58.0006,102.6619,-19.32,100,76,1.79,RU,1707070339
208,villa gesell,-37.2639,-56.973,21.7,53,62,5.24,AR,1707070560
209,wynyard,-41.0,145.7167,16.53,80,92,2.57,AU,1707070560
210,petrolina,-9.3986,-40.5008,33.03,40,20,3.6,BR,1707070462
211,kerikeri,-35.2268,173.9474,11.06,90,0,1.9,NZ,1707070560
212,parkstone,50.7299,-1.9449,11.69,90,75,6.69,GB,1707070561
213,kingscliff,-28.2667,153.5667,24.29,94,100,2.06,AU,1707070561
214,tsiombe,-25.3,45.4833,24.37,86,93,2.3,MG,1707070561
215,shakawe,-18.3667,21.85,25.0,59,100,1.78,BW,1707070561
216,isafjordur,66.0755,-23.124,-2.98,74,100,5.66,IS,1707070562
217,ulladulla,-35.35,150.4667,23.2,85,100,2.71,AU,1707070562
218,nabire,-3.3667,135.4833,25.18,92,99,1.24,ID,1707070562
219,zykovo,55.9519,93.1461,-3.59,72,100,3.44,RU,1707070562
220,east london,-33.0153,27.9116,23.52,100,75,3.6,ZA,1707070507
221,mogocha,53.7333,119.7667,-29.01,100,14,1.3,RU,1707070563
222,idri,27.5,13.2667,15.52,36,25,3.18,LY,1707070563
223,lyantor,61.6195,72.1555,-17.14,94,100,5.66,RU,1707070564
224,holbrook,40.8123,-73.0784,7.14,48,0,5.14,US,1707070564
225,deir ez-zor,35.3359,40.1408,11.14,78,76,1.8,SY,1707070565
226,ribeira grande,38.5167,-28.7,18.22,88,75,9.39,PT,1707070565
227,dryden,49.7833,-92.7503,-0.84,100,100,1.54,CA,1707070565
228,vorgashor,67.5833,63.95,-16.66,91,100,1.19,RU,1707070565
229,atafu village,-8.5421,-172.5159,28.5,80,94,10.0,TK,1707070566
230,st. paul,44.9444,-93.0933,7.01,69,0,2.06,US,1707070566
231,anadyr,64.75,177.4833,-12.72,66,100,3.0,RU,1707070566
232,liskeard,50.4545,-4.4652,10.34,92,93,7.06,GB,1707070566
233,palwancha,17.5815,80.6765,22.82,81,0,2.75,IN,1707070566
234,gaigeturi,33.4644,126.3183,11.03,87,100,11.32,KR,1707070567
235,laguna,38.421,-121.4238,12.9,89,100,6.69,US,1707070567
236,ilulissat,69.2167,-51.1,-21.99,54,20,2.06,GL,1707070563
237,ust-nera,64.5667,143.2,-28.39,97,100,1.94,RU,1707070567
238,sisimiut,66.9395,-53.6735,-20.34,96,96,2.5,GL,1707070567
239,altdorf,49.3875,11.3572,8.01,88,100,7.73,DE,1707070568
240,kindu,-2.95,25.95,23.65,83,94,0.95,CD,1707070568
241,codrington,-38.2667,141.9667,16.43,82,89,5.97,AU,1707070568
242,shakhovskaya,56.0283,35.5097,-3.58,89,100,6.7,RU,1707070569
243,vadso,70.0744,29.7487,-2.91,74,75,6.69,NO,1707070569
244,tougan,13.0667,-3.0667,30.03,10,17,4.23,BF,1707070569
245,kotabumi,-4.8333,104.9,24.34,96,99,0.57,ID,1707070569
246,arar,30.9753,41.0381,12.01,50,75,2.06,SA,1707070569
247,bengkulu,-3.8004,102.2655,24.88,92,99,2.15,ID,1707070570
248,okhotsk,59.3833,143.3,-23.07,79,20,6.39,RU,1707070570
249,kununurra,-15.7667,128.7333,26.99,94,79,0.0,AU,1707070570
250,yuryuzan',54.8633,58.4219,-10.56,94,97,2.03,RU,1707070571
251,yemetsk,63.4721,41.7941,-11.03,92,92,3.42,RU,1707070571
252,crucecita,-28.95,-58.9833,39.91,22,16,2.26,AR,1707070571
253,alice springs,-23.7,133.8833,30.75,38,78,4.63,AU,1707070571
254,chapaev,50.2,51.1667,1.14,99,100,8.95,KZ,1707070571
255,tyup,42.7276,78.3648,-10.04,69,65,2.73,KG,1707070571
256,aras-asan,8.8908,126.3033,24.93,86,15,2.54,PH,1707070572
257,zhezqazghan,47.7833,67.7667,-3.37,97,100,5.32,KZ,1707070572
258,darwin,-12.4611,130.8418,27.99,88,75,5.14,AU,1707070460
259,wailua homesteads,22.0669,-159.378,21.44,84,100,10.29,US,1707070572
260,queenstown,-31.8976,26.8753,19.12,74,89,1.78,ZA,1707070572
261,san antonio de pale,-1.4014,5.6325,28.39,74,46,2.42,GQ,1707070573
262,westport,41.1415,-73.3579,7.48,41,0,4.92,US,1707070573
263,orchard homes,46.8633,-114.0484,2.0,87,100,6.69,US,1707070573
264,kangding,30.0513,101.9603,0.68,60,47,2.48,CN,1707070573
265,saint-joseph,-21.3667,55.6167,22.21,72,18,4.58,RE,1707070574
266,antalaha,-14.9003,50.2788,24.96,90,89,2.73,MG,1707070574
267,darovskoy,58.77,47.9564,-9.94,91,100,5.03,RU,1707070574
268,kodiak,57.79,-152.4072,0.73,86,40,4.12,US,1707070574
269,sao luis de montes belos,-16.525,-50.3722,20.8,95,100,1.18,BR,1707070574
270,gillette,44.2911,-105.5022,5.51,69,0,7.2,US,1707070575
271,sittwe,20.15,92.9,19.75,61,0,5.9,MM,1707070575
272,concepcion,-36.827,-73.0498,21.89,49,0,8.23,CL,1707070461
273,fortuna,40.5982,-124.1573,8.19,96,75,1.34,US,1707070575
274,misratah,32.3754,15.0925,15.79,69,1,6.57,LY,1707070575
275,carbonear,47.7332,-53.2148,2.3,92,100,9.7,CA,1707070576
276,torquay,50.4638,-3.5143,11.99,92,94,2.24,GB,1707070576
277,jiaojiang,28.6803,121.4428,8.89,94,52,2.36,CN,1707070576
278,nguigmi,14.2495,13.1092,22.44,19,0,6.17,NE,1707070576
279,kitimat,54.0524,-128.6534,-2.27,42,49,1.79,CA,1707070354
280,kachkanar,58.7,59.4948,-20.49,100,99,1.31,RU,1707070577
281,mckinleyville,40.9465,-124.1006,8.11,91,100,4.12,US,1707070577
282,antsiranana,-12.2787,49.2917,25.34,91,100,2.08,MG,1707070578
283,santa vitoria do palmar,-33.5189,-53.3681,25.28,60,76,5.68,BR,1707070578
284,antofagasta,-23.65,-70.4,27.6,66,26,3.44,CL,1707070578
285,alpine,32.835,-116.7664,15.21,65,2,2.24,US,1707070578
286,pindushi,62.9152,34.58,-11.46,98,100,2.8,RU,1707070579
287,pandan,14.0453,124.1694,25.01,87,19,4.56,PH,1707070579
288,irituia,-1.7711,-47.4381,30.98,63,33,2.58,BR,1707070579
289,ciudad bolivar,8.1222,-63.5497,38.06,25,96,3.66,VE,1707070580
290,margate,51.3813,1.3862,12.71,75,100,4.92,GB,1707070522
291,labrador city,52.9463,-66.9114,-11.21,68,63,0.79,CA,1707070078
292,kamloops,50.6665,-120.3192,-0.45,55,100,7.2,CA,1707070373
293,santa sylvina,-27.8326,-61.1375,40.94,20,99,2.13,AR,1707070581
294,geraldton,-28.7667,114.6,17.23,72,4,7.72,AU,1707070581
295,praia da vitoria,38.7333,-27.0667,19.31,94,20,5.99,PT,1707070581
296,bikenibeu village,1.3673,173.1241,27.98,89,40,3.6,KI,1707070581
297,sierra grande,-41.606,-65.3557,28.67,15,39,13.02,AR,1707070581
298,akureyri,65.6835,-18.0878,-12.04,79,0,2.06,IS,1707070582
299,tsagan aman,47.5639,46.7218,3.55,91,100,8.46,RU,1707070582
300,zemio,5.0314,25.1361,27.04,28,36,1.87,CF,1707070582
301,mohr,54.3528,9.7167,7.08,93,100,10.8,DE,1707070583
302,prince rupert,54.3161,-130.3201,3.83,100,0,3.09,CA,1707070583
303,portland,45.5234,-122.6762,7.93,90,100,2.06,US,1707070128
304,campo formoso,-10.5075,-40.3214,31.72,35,90,4.19,BR,1707070584
305,viedma,-40.8135,-62.9967,28.82,14,57,7.5,AR,1707070585
306,petukhovo,55.0692,67.9019,-7.27,91,99,6.58,RU,1707070585
307,cidreira,-30.1811,-50.2056,27.95,71,8,5.92,BR,1707070585
308,kampong dungun,3.2167,101.3167,27.07,92,90,1.92,MY,1707070585
309,el matama,16.7095,33.3565,23.14,14,25,6.9,SD,1707070585
310,posse,-14.0931,-46.3694,26.78,58,84,1.3,BR,1707070586
311,inirida,3.8653,-67.9239,34.82,44,94,1.28,CO,1707070586
312,christies beach,-35.1396,138.4698,20.87,72,82,3.58,AU,1707070586
313,chandler,33.3062,-111.8412,17.0,50,0,1.54,US,1707070551
314,hadibu,12.65,54.0333,25.7,72,52,5.82,YE,1707070587
315,dongcun,36.7767,121.1597,-2.55,95,100,5.56,CN,1707070587
316,ta`u,-14.2336,-169.5144,26.1,95,100,16.84,AS,1707070587
317,oranjestad,12.524,-70.027,28.97,79,75,6.17,AW,1707070587
318,touros,-5.1989,-35.4608,30.19,61,5,7.41,BR,1707070588
319,carnarvon,-24.8667,113.6333,22.7,65,0,11.59,AU,1707070588
320,mata-utu,-13.2816,-176.1745,28.52,75,100,5.78,WF,1707070588
321,gaspe,48.8334,-64.4819,-4.88,50,20,6.17,CA,1707070588
322,jalai nur,49.45,117.7,-25.72,97,100,1.94,CN,1707070589
323,kovalam,8.3667,76.9967,28.05,78,40,0.51,IN,1707070589
324,al kharj,24.155,47.3346,14.32,30,32,4.7,SA,1707070589
325,nyandoma,61.669,40.1991,-9.77,94,100,3.47,RU,1707070589
326,staraya kulatka,52.7167,47.6167,1.11,90,100,7.36,RU,1707070590
327,suva,-18.1416,178.4415,23.71,94,40,2.06,FJ,1707070590
328,chifeng,42.2683,118.9636,-9.75,61,100,0.64,CN,1707070590
329,tenno,39.9,139.9667,2.04,57,100,6.26,JP,1707070590
330,arteche,12.2645,125.4048,24.47,86,18,2.92,PH,1707070591
331,pisco,-13.7,-76.2167,27.03,65,0,5.14,PE,1707070591
332,port lincoln,-34.7333,135.8667,17.0,70,99,7.95,AU,1707070580
333,hasaki,35.7333,140.8333,0.22,58,96,3.72,JP,1707070591
334,bayanhongor,46.7167,100.1167,-25.45,91,30,1.92,MN,1707070591
335,moranbah,-22.0016,148.0466,23.5,77,100,3.27,AU,1707070591
336,san lawrenz,36.0553,14.204,13.67,80,0,10.3,MT,1707070592
337,kulhudhuffushi,6.6221,73.07,27.47,78,42,3.4,MV,1707070592
338,antanifotsy,-19.65,47.3167,17.33,98,98,1.27,MG,1707070592
339,puerto baquerizo moreno,-0.9,-89.6,27.55,83,100,4.12,EC,1707070593
340,jeremoabo,-10.075,-38.4808,31.11,46,81,6.08,BR,1707070593
341,nikolayevsk-on-amure,53.1406,140.73,-24.5,99,32,1.78,RU,1707070593
342,itapuranga,-15.5622,-49.9486,24.63,74,99,1.99,BR,1707070593
343,burumburum,11.3911,8.7234,22.57,13,39,3.93,NG,1707070593
344,salinas,36.6777,-121.6555,16.38,86,100,18.01,US,1707070593
345,wailea,19.8858,-155.123,20.06,90,75,1.54,US,1707070594
346,lazaro cardenas,17.9583,-102.2,26.89,56,0,3.34,MX,1707070594
347,konde,-4.95,39.75,27.83,76,100,5.1,TZ,1707070594
348,christchurch,-43.5333,172.6333,15.53,67,4,1.03,NZ,1707070404
349,vorkuta,67.5,64.0,-16.54,92,100,1.35,RU,1707070595
350,kattivakkam,13.2167,80.3167,26.17,72,73,3.7,IN,1707070595
351,landvetter,57.6866,12.2117,5.35,84,75,7.2,SE,1707070595
352,malvan,16.0667,73.4667,25.17,74,0,3.29,IN,1707070595
353,igarka,67.4667,86.5833,-15.0,96,100,3.75,RU,1707070595
354,barda,40.3744,47.1267,5.6,44,54,5.49,AZ,1707070596
355,altay,47.8667,88.1167,-11.61,75,100,2.53,CN,1707070596
356,port moresby,-9.4431,147.1797,24.22,92,73,1.8,PG,1707070325
357,obock,12.25,43.0833,21.08,82,71,2.29,DJ,1707070596
358,tyukhtet,56.5389,89.3011,-3.72,95,100,5.08,RU,1707070596
359,cooma,-36.2333,149.1333,22.69,56,100,4.76,AU,1707070596
360,vila velha,-20.3297,-40.2925,29.97,72,20,6.17,BR,1707070335
361,san diego,32.7153,-117.1573,18.32,66,20,7.72,US,1707069985
362,flying fish cove,-10.4217,105.6791,25.82,94,75,1.54,CX,1707070597
363,piton saint-leu,-21.2196,55.3151,22.04,73,0,3.6,RE,1707070597
364,cascais,38.6979,-9.4215,17.01,79,0,2.68,PT,1707070597
365,hassi messaoud,31.6804,6.0729,14.22,41,0,3.37,DZ,1707070597
366,bure,10.7,37.0667,18.45,58,93,2.43,ET,1707070598
367,huancavelica,-12.7667,-74.9833,9.25,67,99,3.72,PE,1707070598
368,petauke,-14.2426,31.3253,20.88,83,28,1.61,ZM,1707070598
369,karymskoye,51.6167,114.35,-24.07,99,89,1.13,RU,1707070598
370,adam,22.3756,57.5233,20.05,31,5,6.64,OM,1707070598
371,saint-pierre,-21.3393,55.4781,22.82,73,0,3.6,RE,1707070598
372,celestun,20.8667,-90.4,25.65,71,31,3.93,MX,1707070599
373,saint-philippe,-21.3585,55.7679,22.77,73,36,3.99,RE,1707070599
374,bac lieu,9.285,105.7244,24.79,86,50,1.61,VN,1707070599
375,cooper's town,26.8667,-77.5167,22.63,65,91,7.99,BS,1707070599
376,port hedland,-20.3167,118.5667,27.03,83,100,8.23,AU,1707070599
377,buzdyak,54.5833,54.55,-2.79,95,100,6.39,RU,1707070599
378,ouesso,1.6136,16.0517,29.15,24,98,0.75,CG,1707070599
379,takoradi,4.8845,-1.7554,28.2,71,56,3.75,GH,1707070600
380,weno,7.4515,151.8468,27.97,89,100,4.63,FM,1707070600
381,kruisfontein,-34.0033,24.7314,22.16,78,83,1.69,ZA,1707070600
382,broken hill,-31.95,141.4333,25.18,67,100,11.37,AU,1707070600
383,puttalam,8.0362,79.8283,24.91,87,55,5.33,LK,1707070570
384,barrosas,41.3553,-8.2994,15.11,77,80,0.74,PT,1707070600
385,turtas,58.9417,69.1325,-14.05,97,100,2.2,RU,1707070601
386,nkove,-7.95,30.85,24.29,76,98,1.51,TZ,1707070601
387,usogorsk,63.4106,48.6872,-14.22,95,100,3.78,RU,1707070601
388,pazarlar,38.995,29.1258,2.76,75,100,1.31,TR,1707070601
389,ondangwa,-17.9167,15.95,23.0,73,100,1.54,NA,1707070601
390,coahuayana de hidalgo,18.7,-103.6583,28.66,36,0,2.26,MX,1707070602
391,amparafaravola,-17.5833,48.2167,20.46,96,97,1.91,MG,1707070602
392,guerrero negro,27.9769,-114.0611,16.4,61,0,2.14,MX,1707070475
393,bandon,51.7469,-8.7425,10.77,93,73,6.88,IE,1707070602
394,karratha,-20.7377,116.8463,30.07,57,68,6.78,AU,1707070602
395,ceeldheer,3.8488,47.1806,25.09,79,32,10.22,SO,1707070602
396,taro,-8.3862,115.28,24.0,95,100,1.35,ID,1707070603
397,rio grande,-32.035,-52.0986,31.06,76,22,7.38,BR,1707070603
398,saldanha,-33.0117,17.9442,20.36,86,35,3.38,ZA,1707070603
399,thinadhoo,0.5333,72.9333,28.47,77,93,6.53,MV,1707070603
400,fale old settlement,-9.3852,-171.2468,29.02,78,99,11.02,TK,1707070603
401,greencastle,39.6445,-86.8647,11.59,49,0,5.66,US,1707070497
402,wellington,-41.2866,174.7756,16.81,83,1,9.77,NZ,1707070001
403,kita,13.0349,-9.4895,34.39,10,64,1.83,ML,1707070604
404,longyearbyen,78.2186,15.6401,-2.09,80,75,11.83,SJ,1707070604
405,longmen,24.9597,118.0889,15.34,94,57,1.35,CN,1707070604
406,sarmiento,-45.5882,-69.07,30.6,18,46,10.08,AR,1707070604
407,lerwick,60.1545,-1.1494,4.0,60,100,13.3,GB,1707070604
408,san felipe,10.3399,-68.7425,31.39,56,85,0.23,VE,1707070605
409,mersa matruh,31.3525,27.2453,14.45,60,3,4.41,EG,1707070605
410,son la,21.3167,103.9,15.56,50,0,0.72,VN,1707070605
411,ciudad lazaro cardenas,17.9583,-102.2,26.89,56,0,3.34,MX,1707070594
412,faya-largeau,17.9257,19.1043,19.28,15,36,9.18,TD,1707070606
413,nar'yan-mar,67.6713,53.087,-19.38,91,79,3.13,RU,1707070606
414,varkaus,62.3153,27.873,-2.61,96,84,2.7,FI,1707070606
415,glace bay,46.1969,-59.957,-0.01,98,100,6.71,CA,1707070492
416,changji,44.0167,87.3167,-12.56,85,75,0.0,CN,1707070606
417,arkalyk,50.2486,66.9114,-4.9,94,100,7.77,KZ,1707070607
418,sao geraldo do araguaia,-6.4006,-48.555,28.95,78,17,2.3,BR,1707070607
419,guano,-1.5833,-78.6333,16.04,67,98,2.09,EC,1707070607
420,koraput,18.8167,82.7167,17.07,86,0,2.47,IN,1707070608
421,micheweni,-4.9667,39.8333,28.19,76,99,5.87,TZ,1707070608
422,mahibadhoo,3.7833,72.9667,28.0,78,72,8.24,MV,1707070608
423,lompoc,34.6391,-120.4579,13.8,68,100,13.89,US,1707070608
424,martuk,50.7475,56.5056,-0.11,96,100,10.85,KZ,1707070609
425,acajutla,13.5928,-89.8275,28.85,63,47,5.19,SV,1707070333
426,djambala,-2.5447,14.7533,23.81,77,84,1.43,CG,1707070609
427,bangaon,23.0667,88.8167,20.19,31,3,1.55,IN,1707070609
428,chibougamau,49.9168,-74.3659,-7.21,93,0,0.0,CA,1707070609
429,xianning,29.8833,114.2167,-4.89,97,78,1.22,CN,1707070609
430,taoudenni,22.6783,-3.9836,21.79,14,14,5.68,ML,1707070610
431,taunggyi,20.7833,97.0333,9.49,58,0,0.69,MM,1707070610
432,tiruttangal,9.4833,77.8333,25.31,71,100,2.31,IN,1707070610
433,nizhniy kuranakh,58.8353,125.4869,-31.84,99,77,1.15,RU,1707070610
434,ilheus,-14.7889,-39.0494,28.9,84,40,4.63,BR,1707070610
435,gallup,35.5281,-108.7426,3.42,64,0,2.57,US,1707070611
436,pionerskiy,54.9508,20.2275,6.19,87,100,15.69,RU,1707070611
437,grand falls-windsor,48.9332,-55.6649,-0.28,93,100,3.13,CA,1707070611
438,gizo,-8.103,156.8419,28.01,77,87,4.05,SB,1707070611
439,palangkaraya,-2.2,113.8333,23.68,99,100,0.76,ID,1707070611
440,mantes-la-ville,48.9737,1.7025,9.87,91,96,5.83,FR,1707070612
441,port douglas,-16.4833,145.4667,26.91,84,99,1.24,AU,1707070612
442,saint-francois,46.4154,3.9054,5.69,83,100,1.54,FR,1707070612
443,zaysan,47.4667,84.8667,-13.75,78,85,1.75,KZ,1707070612
444,mirny,62.5353,113.9611,-27.65,75,62,0.89,RU,1707070613
445,prachuap khiri khan,12.2167,99.75,21.17,75,15,1.65,TH,1707070613
446,alghero,40.5589,8.3181,14.05,88,40,4.63,IT,1707070613
447,mar del plata,-38.0023,-57.5575,20.53,60,20,5.14,AR,1707070350
448,letlhakeng,-24.0944,25.0298,27.54,35,99,2.95,BW,1707070613
449,namibe,-15.1961,12.1522,26.48,78,64,3.4,AO,1707070613
450,higuera de zaragoza,25.95,-109.2833,21.96,39,0,4.92,MX,1707070613
451,mbandaka,0.0487,18.2603,30.99,36,69,1.5,CD,1707070614
452,marka,1.7159,44.7717,26.77,84,98,8.82,SO,1707070614
453,yangshuo,24.7808,110.4897,4.2,90,96,2.42,CN,1707070614
454,port pirie,-33.1833,138.0167,20.44,69,10,6.12,AU,1707070615
455,malanville,11.8685,3.3899,28.0,12,22,4.11,BJ,1707070615
456,dukhan,25.4297,50.7858,17.23,56,3,5.57,QA,1707070615
457,mendi,-6.1761,143.6513,12.69,97,69,1.32,PG,1707070615
458,jatiroto,-7.8833,111.1167,23.16,95,100,0.62,ID,1707070616
459,sayanogorsk,53.0875,91.3997,-11.27,83,98,2.32,RU,1707070616
460,qa'en,33.7265,59.1844,2.38,44,0,1.34,IR,1707070616
461,teruel,40.6667,-0.6667,7.29,49,13,0.41,ES,1707070616
462,andkhoy,36.9529,65.1238,5.31,64,4,4.2,AF,1707070616
463,komsomolsk-on-amur,50.552,137.0152,-25.57,100,98,1.61,RU,1707070340
464,rosebud,46.3333,-106.5839,6.67,78,100,2.87,US,1707070616
465,ifon,6.9241,5.776,30.61,17,48,1.17,NG,1707070617
466,urbana,40.1106,-88.2073,7.81,77,0,6.69,US,1707070617
467,waingapu,-9.6567,120.2641,26.42,84,100,4.28,ID,1707070617
468,praia,14.9215,-23.5087,27.3,54,0,7.2,CV,1707070617
469,kuanda,56.3161,116.0806,-27.61,95,76,0.5,RU,1707070617
470,santa ana,33.7456,-117.8678,15.69,70,75,5.14,US,1707070394
471,nema,57.5067,50.5011,-9.23,93,100,5.99,RU,1707070618
472,kralendijk,12.15,-68.2667,26.51,84,76,5.32,BQ,1707070439
473,minot,48.2325,-101.2963,3.12,93,100,3.09,US,1707070374
474,ambon,-3.6954,128.1814,27.27,14,40,3.09,ID,1707070618
475,urangan,-25.3,152.9,24.0,87,12,2.24,AU,1707070618
476,dudinka,69.4058,86.1778,-17.99,96,99,4.07,RU,1707070618
477,bodo,67.28,14.405,2.02,54,40,7.72,NO,1707070619
478,nova vicosa,-17.8919,-39.3719,28.53,61,84,3.66,BR,1707070619
479,majene,-3.5403,118.9707,25.83,85,100,2.16,ID,1707070619
480,st. john's,47.5649,-52.7093,2.04,96,100,12.35,CA,1707070619
481,lindsdal,56.7333,16.3,5.03,78,0,8.75,SE,1707070620
482,roshal',55.6685,39.8749,-2.35,96,99,2.92,RU,1707070326
483,la passe,45.5549,-0.8967,8.13,86,58,2.66,FR,1707070620
484,kavieng,-2.5744,150.7967,28.53,78,100,3.59,PG,1707070620
485,camargo,27.6667,-105.1667,15.14,18,0,2.87,MX,1707070620
486,bozuyuk,39.9078,30.0367,5.16,92,100,1.59,TR,1707070620
487,roma,43.2128,-75.4557,4.85,62,100,3.09,US,1707070621
488,hamada,34.8833,132.0833,5.6,91,100,5.05,JP,1707070459
489,las khorey,11.1595,48.1967,25.32,77,53,3.69,SO,1707070621
490,ribadesella,43.4614,-5.0596,13.3,87,6,1.49,ES,1707070621
491,pakuranga,-36.8833,174.9167,17.59,74,100,1.03,NZ,1707070621
492,ulsteinvik,62.3432,5.8487,2.5,84,100,9.83,NO,1707070622
493,awjilah,29.1081,21.2869,15.18,49,21,4.36,LY,1707070622
494,paita,-5.0892,-81.1144,27.45,68,83,5.6,PE,1707070622
495,khandyga,62.6667,135.6,-43.38,100,77,0.54,RU,1707070622
496,beyneu,45.3167,55.2,2.74,86,100,4.24,KZ,1707070622
497,butembo,0.15,29.2833,18.55,63,98,1.08,CD,1707070623
498,aldama,22.9167,-98.0667,28.61,36,0,3.37,MX,1707070623
499,yanqul,23.5905,56.5501,15.88,46,14,2.35,OM,1707070624
500,nagqu,31.5,92.0,-5.58,30,100,3.98,CN,1707070624
501,misliyah,17.4599,42.5572,25.27,69,12,4.09,SA,1707070624
502,mollendo,-17.0231,-72.0147,25.47,75,5,3.5,PE,1707070624
503,prince george,53.9166,-122.753,-9.31,85,0,2.06,CA,1707070624
504,ixtapa,20.7,-105.2,24.57,47,0,0.0,MX,1707070625
505,menongue,-14.6585,17.691,18.71,96,100,3.42,AO,1707070625
506,polyarnyy,69.1989,33.4478,-11.63,85,63,7.05,RU,1707070625
507,mil'kovo,55.6078,37.7956,0.33,95,92,4.65,RU,1707070625
508,hammerfest,70.6634,23.6821,-3.75,80,75,2.06,NO,1707070625
509,colonia,50.9333,6.95,12.12,82,75,10.29,DE,1707070550
510,bowen,-20.0167,148.2333,26.35,72,61,2.53,AU,1707070625
511,coquimbo,-29.9533,-71.3436,22.85,64,75,4.63,CL,1707070498
512,horta,38.5333,-28.6333,17.8,90,75,9.39,PT,1707070453
513,mosfellsbaer,64.1667,-21.7,-3.99,79,20,3.6,IS,1707070626
514,acarau,-2.8856,-40.12,31.28,62,32,9.47,BR,1707070626
515,neukirchen,50.8667,9.3333,10.25,93,100,7.59,DE,1707070626
516,watton,53.9333,-0.45,13.3,76,100,8.23,GB,1707070627
517,bairnsdale,-37.8333,147.6167,25.59,54,88,3.23,AU,1707070627
518,pacific grove,36.6177,-121.9166,16.15,80,100,7.72,US,1707070557
519,oppdal,62.5943,9.6912,-7.33,90,67,2.72,NO,1707070627
520,buala,-8.145,159.5921,26.61,86,100,3.95,SB,1707070627
521,roggiano gravina,39.6182,16.1597,13.48,90,3,2.08,IT,1707070627
522,karatau,43.1667,70.4667,-1.42,91,100,1.85,KZ,1707070628
523,pangody,65.85,74.4859,-15.91,97,97,2.38,RU,1707070628
524,rantepao,-2.9701,119.8978,20.74,97,100,1.24,ID,1707070628
525,berdigestyakh,62.0989,126.6992,-33.87,100,94,0.96,RU,1707070628
526,caleta olivia,-46.4393,-67.5281,29.29,27,98,10.97,AR,1707070628
527,cambria,35.5641,-121.0808,15.43,95,100,7.6,US,1707070628
528,port sudan,19.6175,37.2164,22.26,60,18,6.27,SD,1707070629
529,tyul'gan,52.3405,56.166,-1.96,97,100,8.54,RU,1707070629
530,byron bay,-28.65,153.6167,23.17,72,80,3.58,AU,1707070629
531,callao,-12.0667,-77.15,29.16,58,40,3.6,PE,1707070629
532,norrtalje,59.758,18.705,0.47,74,10,3.91,SE,1707070629
533,inyonga,-6.7167,32.0667,20.08,92,99,1.02,TZ,1707070629
534,emerald,-23.5333,148.1667,21.86,85,100,4.03,AU,1707070538
535,cermik,38.1361,39.4493,3.19,99,100,0.81,TR,1707070630
536,kenai,60.5544,-151.2583,-10.48,91,100,2.57,US,1707070630
537,staraya russa,57.9944,31.3608,-0.57,82,97,4.53,RU,1707070630
538,sao felix do xingu,-6.6447,-51.995,30.29,68,39,1.85,BR,1707070497
539,angul,20.85,85.1,20.92,45,0,1.59,IN,1707070631
540,kendari,-3.945,122.4989,24.94,93,100,1.48,ID,1707070631
541,fengkou,30.0833,113.2667,-9.53,98,40,1.88,CN,1707070632
542,kalemie,-5.9475,29.1947,23.15,82,99,1.06,CD,1707070632
543,sona,45.4388,10.8255,9.62,81,100,1.54,IT,1707070632
544,shache,38.4167,77.2406,-3.23,82,92,0.56,CN,1707070632
545,kidal,18.4411,1.4078,21.66,8,0,5.34,ML,1707070632
546,turpan,42.9333,89.1667,0.3,48,33,0.21,CN,1707070633
547,simpang,-1.2667,104.0833,24.24,94,100,0.6,ID,1707070633
548,dossor,47.5272,52.9811,1.83,97,100,11.31,KZ,1707070633
549,sinabang,2.4803,96.3801,27.17,79,77,1.33,ID,1707070570
550,san patricio,28.017,-97.5169,23.05,35,0,11.46,US,1707070633
551,kristiansund,63.1115,7.732,0.03,100,75,2.57,NO,1707070633
552,petrovka,53.0503,103.1,-25.52,100,68,1.52,RU,1707070634
553,changli,39.7042,119.1506,-2.86,42,100,1.13,CN,1707070634
554,rikaze,29.25,88.8833,-0.74,28,35,1.58,CN,1707070634
555,moissala,8.3404,17.7663,28.55,15,15,2.41,TD,1707070634
556,zandvoort,52.3749,4.5341,11.62,88,40,10.8,NL,1707070635
557,jincheng,35.5022,112.8328,-10.79,98,92,1.08,CN,1707070635
558,sao jose do belmonte,-7.8614,-38.7597,36.53,22,6,4.02,BR,1707070635
559,al miqdadiyah,33.9786,44.9369,13.41,48,47,4.43,IQ,1707070635
560,al kharijah,25.4514,30.5464,12.22,28,0,3.55,EG,1707070635
561,vondrozo,-22.8167,47.2833,20.41,89,100,1.74,MG,1707070635
562,namsos,64.4662,11.4957,-0.97,93,40,2.57,NO,1707070636
563,natal,-5.795,-35.2094,31.36,70,40,6.17,BR,1707070369
564,al quwayrah,29.8004,35.3116,11.0,41,0,2.11,JO,1707070637
565,malindi,-3.2175,40.1191,27.08,83,100,5.08,KE,1707070637
566,drahichyn,52.1874,25.1597,3.45,95,98,9.72,BY,1707070637
567,ketchikan,55.3422,-131.6461,3.52,93,100,1.54,US,1707070637
568,bayanaul,50.7889,75.6956,-7.16,90,100,4.91,KZ,1707070637
569,al ghayzah,16.2079,52.176,24.57,61,10,3.38,YE,1707070638
